[{"name":"Antarctica","x":0.7921,"y":0.1104,"lat":-80.507,"lon":19.873,"w":77.795},{"name":"Russia","x":-0.4419,"y":0.5374,"lat":61.981,"lon":96.723,"w":54.044},{"name":"Canada","x":-0.4347,"y":-0.5459,"lat":61.367,"lon":-98.269,"w":41.146},{"name":"United States","x":-0.2859,"y":-0.6248,"lat":45.676,"lon":-112.471,"w":33.423},{"name":"China","x":-0.2185,"y":0.5775,"lat":36.565,"lon":103.948,"w":30.8},{"name":"Brazil","x":0.0602,"y":-0.2948,"lat":-10.78,"lon":-53.07,"w":26.65},{"name":"Australia","x":0.148,"y":0.7472,"lat":-25.729,"lon":134.491,"w":26.374},{"name":"Greenland","x":-0.6385,"y":-0.2305,"lat":74.677,"lon":-41.486,"w":25.62},{"name":"Kazakhstan","x":-0.3061,"y":0.3736,"lat":48.157,"lon":67.255,"w":18.181},{"name":"Argentina","x":0.2104,"y":-0.362,"lat":-35.385,"lon":-65.163,"w":16.678},{"name":"India","x":-0.1273,"y":0.4411,"lat":22.328,"lon":79.394,"w":16.191},{"name":"Algeria","x":-0.1631,"y":0.0149,"lat":28.158,"lon":2.677,"w":14.582},{"name":"Democratic Republic of the Congo","x":0.016,"y":0.1314,"lat":-2.881,"lon":23.66,"w":13.783},{"name":"Mongolia","x":-0.2952,"y":0.5726,"lat":46.836,"lon":103.067,"w":13.595},{"name":"México","x":-0.1371,"y":-0.5697,"lat":23.951,"lon":-102.548,"w":13.176},{"name":"Saudi Arabia","x":-0.1381,"y":0.2475,"lat":24.12,"lon":44.543,"w":13.082},{"name":"Sudan","x":-0.0904,"y":0.1667,"lat":16.049,"lon":30.006,"w":12.585},{"name":"Iran","x":-0.1915,"y":0.3017,"lat":32.557,"lon":54.304,"w":12.49},{"name":"Indonesia","x":0.0124,"y":0.6517,"lat":-2.237,"lon":117.303,"w":12.407},{"name":"Libya","x":-0.1561,"y":0.1002,"lat":27.04,"lon":18.031,"w":12.133},{"name":"South Africa","x":0.1684,"y":0.1394,"lat":-28.996,"lon":25.087,"w":10.634},{"name":"Chad","x":-0.0864,"y":0.1037,"lat":15.365,"lon":18.667,"w":10.351},{"name":"Peru","x":0.0512,"y":-0.4131,"lat":-9.173,"lon":-74.358,"w":10.326},{"name":"Mali","x":-0.0979,"y":-0.0196,"lat":17.356,"lon":-3.522,"w":10.323},{"name":"Angola","x":0.0689,"y":0.0975,"lat":-12.298,"lon":17.547,"w":10.187},{"name":"Niger","x":-0.0983,"y":0.0522,"lat":17.424,"lon":9.401,"w":10.039},{"name":"Ethiopia","x":-0.0481,"y":0.2201,"lat":8.629,"lon":39.625,"w":9.636},{"name":"Colombia","x":-0.0217,"y":-0.406,"lat":3.898,"lon":-73.078,"w":9.631},{"name":"Bolivia","x":0.0942,"y":-0.3592,"lat":-16.716,"lon":-64.657,"w":9.592},{"name":"Mauritania","x":-0.115,"y":-0.0574,"lat":20.265,"lon":-10.337,"w":9.494},{"name":"Egypt","x":-0.1532,"y":0.1655,"lat":26.57,"lon":29.784,"w":9.446},{"name":"Turkey","x":-0.2361,"y":0.1954,"lat":39.06,"lon":35.176,"w":9.015},{"name":"Sweden","x":-0.4514,"y":0.0931,"lat":62.771,"lon":16.758,"w":8.901},{"name":"Chile","x":0.2288,"y":-0.3966,"lat":-38.04,"lon":-71.389,"w":8.874},{"name":"Tanzania","x":0.0349,"y":0.1935,"lat":-6.266,"lon":34.826,"w":8.771},{"name":"Nigeria","x":-0.0535,"y":0.045,"lat":9.592,"lon":8.098,"w":8.653},{"name":"Venezuela","x":-0.0397,"y":-0.3675,"lat":7.134,"lon":-66.146,"w":8.646},{"name":"Ukraine","x":-0.3132,"y":0.1745,"lat":49.009,"lon":31.406,"w":8.599},{"name":"Pakistan","x":-0.1707,"y":0.3822,"lat":29.349,"lon":68.799,"w":8.585},{"name":"Namibia","x":0.1262,"y":0.0957,"lat":-22.139,"lon":17.222,"w":8.5},{"name":"Mozambique","x":0.0974,"y":0.1975,"lat":-17.259,"lon":35.551,"w":8.19},{"name":"France","x":-0.293,"y":0.0142,"lat":46.559,"lon":2.554,"w":8.032},{"name":"Finland","x":-0.4728,"y":0.1458,"lat":64.486,"lon":26.246,"w":7.933},{"name":"Zambia","x":0.0755,"y":0.1544,"lat":-13.457,"lon":27.79,"w":7.922},{"name":"Afghanistan","x":-0.1999,"y":0.3668,"lat":33.828,"lon":66.03,"w":7.921},{"name":"Norway","x":-0.4725,"y":0.0782,"lat":64.458,"lon":14.07,"w":7.794},{"name":"Myanmar","x":-0.1201,"y":0.5362,"lat":21.117,"lon":96.51,"w":7.636},{"name":"Spain","x":-0.2445,"y":-0.0203,"lat":40.227,"lon":-3.647,"w":7.321},{"name":"Somalia","x":-0.0338,"y":0.2548,"lat":6.068,"lon":45.869,"w":7.2},{"name":"South Sudan","x":-0.0406,"y":0.1685,"lat":7.287,"lon":30.321,"w":7.173},{"name":"Turkmenistan","x":-0.237,"y":0.3288,"lat":39.193,"lon":59.179,"w":7.146},{"name":"Madagascar","x":0.1098,"y":0.2594,"lat":-19.376,"lon":46.699,"w":7.137},{"name":"Central African Republic","x":-0.0366,"y":0.1138,"lat":6.574,"lon":20.486,"w":7.123},{"name":"Botswana","x":0.1265,"y":0.1323,"lat":-22.188,"lon":23.814,"w":7.116},{"name":"Uzbekistan","x":-0.2557,"y":0.351,"lat":41.751,"lon":63.171,"w":6.962},{"name":"Kenya","x":-0.0031,"y":0.2103,"lat":0.553,"lon":37.846,"w":6.902},{"name":"Germany","x":-0.3314,"y":0.0577,"lat":51.11,"lon":10.394,"w":6.779},{"name":"Thailand","x":-0.0849,"y":0.5612,"lat":15.111,"lon":101.014,"w":6.579},{"name":"Iraq","x":-0.1947,"y":0.2432,"lat":33.048,"lon":43.775,"w":6.493},{"name":"Poland","x":-0.3405,"y":0.1077,"lat":52.13,"lon":19.393,"w":6.404},{"name":"Caspian Sea","x":-0.255,"y":0.2815,"lat":41.662,"lon":50.672,"w":6.342},{"name":"Morocco","x":-0.1868,"y":-0.0349,"lat":31.847,"lon":-6.276,"w":6.279},{"name":"Yemen","x":-0.0895,"y":0.2644,"lat":15.905,"lon":47.584,"w":6.178},{"name":"Cameroon","x":-0.0317,"y":0.0708,"lat":5.694,"lon":12.742,"w":6.171},{"name":"Japan","x":-0.2252,"y":0.7664,"lat":37.531,"lon":137.949,"w":6.169},{"name":"Papua New Guinea","x":0.0361,"y":0.807,"lat":-6.477,"lon":145.254,"w":6.158},{"name":"Paraguay","x":0.1328,"y":-0.3244,"lat":-23.245,"lon":-58.391,"w":5.937},{"name":"United Kingdom","x":-0.3593,"y":-0.0161,"lat":54.159,"lon":-2.897,"w":5.811},{"name":"Zimbabwe","x":0.1075,"y":0.1659,"lat":-19.001,"lon":29.871,"w":5.786},{"name":"Italy","x":-0.2635,"y":0.0671,"lat":42.789,"lon":12.078,"w":5.755},{"name":"New Zealand","x":0.2563,"y":0.9526,"lat":-41.826,"lon":171.471,"w":5.401},{"name":"Belarus","x":-0.3536,"y":0.1559,"lat":53.545,"lon":28.056,"w":5.298},{"name":"Vietnam","x":-0.0938,"y":0.5906,"lat":16.646,"lon":106.308,"w":5.29},{"name":"Republic of the Congo","x":0.0046,"y":0.0847,"lat":-0.833,"lon":15.245,"w":5.271},{"name":"Romania","x":-0.2872,"y":0.1388,"lat":45.84,"lon":24.986,"w":5.254},{"name":"Malaysia","x":-0.0211,"y":0.6095,"lat":3.794,"lon":109.711,"w":5.181},{"name":"Oman","x":-0.1169,"y":0.3117,"lat":20.589,"lon":56.097,"w":5.177},{"name":"Côte d'Ivoire","x":-0.0425,"y":-0.0309,"lat":7.626,"lon":-5.555,"w":5.134},{"name":"Svalbard and Jan Mayen","x":-0.7408,"y":0.1026,"lat":78.856,"lon":18.468,"w":5.004},{"name":"Philippines","x":-0.0657,"y":0.6826,"lat":11.736,"lon":122.866,"w":4.958},{"name":"Western Sahara","x":-0.1416,"y":-0.073,"lat":24.679,"lon":-13.135,"w":4.884},{"name":"Burkina Faso","x":-0.0687,"y":-0.0097,"lat":12.276,"lon":-1.746,"w":4.763},{"name":"Gabon","x":0.0035,"y":0.0655,"lat":-0.623,"lon":11.785,"w":4.637},{"name":"Kyrgyzstan","x":-0.2536,"y":0.4141,"lat":41.465,"lon":74.536,"w":4.613},{"name":"Ecuador","x":0.0079,"y":-0.4376,"lat":-1.426,"lon":-78.774,"w":4.565},{"name":"Guinea","x":-0.0583,"y":-0.0608,"lat":10.436,"lon":-10.937,"w":4.497},{"name":"Laos","x":-0.1046,"y":0.5765,"lat":18.497,"lon":103.767,"w":4.436},{"name":"Ghana","x":-0.0444,"y":-0.0067,"lat":7.97,"lon":-1.208,"w":4.433},{"name":"Uganda","x":-0.0071,"y":0.18,"lat":1.281,"lon":32.392,"w":4.43},{"name":"Iceland","x":-0.4793,"y":-0.1032,"lat":64.983,"lon":-18.581,"w":4.407},{"name":"Syria","x":-0.208,"y":0.214,"lat":35.025,"lon":38.527,"w":4.297},{"name":"Guyana","x":-0.0267,"y":-0.3277,"lat":4.793,"lon":-58.98,"w":4.136},{"name":"Uruguay","x":0.193,"y":-0.3112,"lat":-32.795,"lon":-56.018,"w":4.135},{"name":"Senegal","x":-0.0806,"y":-0.0804,"lat":14.359,"lon":-14.47,"w":4.062},{"name":"Tunisia","x":-0.2018,"y":0.0532,"lat":34.111,"lon":9.579,"w":3.891},{"name":"Cambodia","x":-0.0712,"y":0.5829,"lat":12.71,"lon":104.916,"w":3.889},{"name":"Tajikistan","x":-0.2323,"y":0.3947,"lat":38.529,"lon":71.038,"w":3.832},{"name":"Greece","x":-0.2359,"y":0.1277,"lat":39.042,"lon":22.986,"w":3.715},{"name":"Nepal","x":-0.1638,"y":0.4664,"lat":28.259,"lon":83.946,"w":3.685},{"name":"North Korea","x":-0.2438,"y":0.7065,"lat":40.135,"lon":127.164,"w":3.601},{"name":"Bangladesh","x":-0.1364,"y":0.5015,"lat":23.837,"lon":90.277,"w":3.515},{"name":"Bulgaria","x":-0.2633,"y":0.1401,"lat":42.756,"lon":25.225,"w":3.503},{"name":"Suriname","x":-0.023,"y":-0.3106,"lat":4.136,"lon":-55.916,"w":3.454},{"name":"Hungary","x":-0.2979,"y":0.1079,"lat":47.167,"lon":19.414,"w":3.322},{"name":"Nicaragua","x":-0.072,"y":-0.4724,"lat":12.844,"lon":-85.038,"w":3.267},{"name":"Eritrea","x":-0.0865,"y":0.2159,"lat":15.382,"lon":38.857,"w":3.185},{"name":"Jammu and Kashmir","x":-0.1995,"y":0.4254,"lat":33.772,"lon":76.576,"w":3.185},{"name":"South Korea","x":-0.2171,"y":0.7099,"lat":36.353,"lon":127.789,"w":3.177},{"name":"Austria","x":-0.3014,"y":0.0786,"lat":47.588,"lon":14.142,"w":3.168},{"name":"Malawi","x":0.0741,"y":0.1906,"lat":-13.214,"lon":34.302,"w":3.137},{"name":"Czechia","x":-0.3195,"y":0.0852,"lat":49.741,"lon":15.33,"w":3.136},{"name":"Cuba","x":-0.1231,"y":-0.4391,"lat":21.625,"lon":-79.03,"w":3.108},{"name":"Portugal","x":-0.2399,"y":-0.0473,"lat":39.597,"lon":-8.515,"w":3.104},{"name":"Latvia","x":-0.3858,"y":0.1385,"lat":56.853,"lon":24.932,"w":3.086},{"name":"Benin","x":-0.0539,"y":0.013,"lat":9.654,"lon":2.341,"w":3.082},{"name":"Ireland","x":-0.3501,"y":-0.0453,"lat":53.176,"lon":-8.155,"w":3.073},{"name":"Honduras","x":-0.0833,"y":-0.4812,"lat":14.818,"lon":-86.616,"w":3.071},{"name":"Guatemala","x":-0.0883,"y":-0.502,"lat":15.697,"lon":-90.355,"w":3.034},{"name":"Lithuania","x":-0.3707,"y":0.1328,"lat":55.335,"lon":23.905,"w":3.034},{"name":"Azerbaijan","x":-0.2449,"y":0.2641,"lat":40.287,"lon":47.53,"w":3.022},{"name":"Serbia","x":-0.2745,"y":0.1155,"lat":44.226,"lon":20.782,"w":2.969},{"name":"Jordan","x":-0.1829,"y":0.2044,"lat":31.246,"lon":36.787,"w":2.906},{"name":"Azad Kashmir","x":-0.2114,"y":0.4157,"lat":35.534,"lon":74.832,"w":2.851},{"name":"Liberia","x":-0.0359,"y":-0.0517,"lat":6.445,"lon":-9.307,"w":2.8},{"name":"Georgia","x":-0.2589,"y":0.2418,"lat":42.177,"lon":43.519,"w":2.759},{"name":"Estonia","x":-0.4047,"y":0.1419,"lat":58.671,"lon":25.55,"w":2.653},{"name":"French Guiana","x":-0.0219,"y":-0.2957,"lat":3.93,"lon":-53.231,"w":2.605},{"name":"Croatia","x":-0.2808,"y":0.0911,"lat":45.027,"lon":16.391,"w":2.553},{"name":"United Arab Emirates","x":-0.1369,"y":0.3018,"lat":23.915,"lon":54.332,"w":2.511},{"name":"Denmark","x":-0.3768,"y":0.0559,"lat":55.958,"lon":10.056,"w":2.491},{"name":"Panama","x":-0.0475,"y":-0.445,"lat":8.51,"lon":-80.099,"w":2.489},{"name":"Arunachal Pradesh","x":-0.163,"y":0.5242,"lat":28.137,"lon":94.361,"w":2.483},{"name":"Slovakia","x":-0.3107,"y":0.1082,"lat":48.71,"lon":19.484,"w":2.449},{"name":"Sierra Leone","x":-0.0477,"y":-0.0655,"lat":8.556,"lon":-11.79,"w":2.442},{"name":"Bosnia and Herzegovina","x":-0.2741,"y":0.0988,"lat":44.176,"lon":17.789,"w":2.397},{"name":"Sri Lanka","x":-0.0425,"y":0.4483,"lat":7.622,"lon":80.698,"w":2.323},{"name":"Netherlands","x":-0.3418,"y":0.031,"lat":52.263,"lon":5.574,"w":2.227},{"name":"Switzerland","x":-0.2949,"y":0.0457,"lat":46.801,"lon":8.23,"w":2.204},{"name":"Togo","x":-0.0476,"y":0.0054,"lat":8.536,"lon":0.979,"w":2.162},{"name":"Costa Rica","x":-0.0557,"y":-0.4678,"lat":9.973,"lon":-84.196,"w":2.054},{"name":"Dominican Republic","x":-0.1069,"y":-0.3916,"lat":18.896,"lon":-70.493,"w":2.031},{"name":"Moldova","x":-0.2982,"y":0.1582,"lat":47.204,"lon":28.469,"w":2.006},{"name":"Belgium","x":-0.3273,"y":0.0259,"lat":50.641,"lon":4.662,"w":1.975},{"name":"Bhutan","x":-0.1584,"y":0.5024,"lat":27.396,"lon":90.428,"w":1.881},{"name":"Taiwan","x":-0.1359,"y":0.672,"lat":23.753,"lon":120.957,"w":1.796},{"name":"Armenia","x":-0.245,"y":0.2497,"lat":40.294,"lon":44.939,"w":1.773},{"name":"Albania","x":-0.2512,"y":0.1115,"lat":41.141,"lon":20.063,"w":1.755},{"name":"Aksai Chin","x":-0.2082,"y":0.4397,"lat":35.053,"lon":79.15,"w":1.749},{"name":"Lesotho","x":0.1722,"y":0.1569,"lat":-29.583,"lon":28.247,"w":1.687},{"name":"Guinea-Bissau","x":-0.0672,"y":-0.0832,"lat":12.015,"lon":-14.982,"w":1.677},{"name":"North Macedonia","x":-0.2545,"y":0.1205,"lat":41.594,"lon":21.688,"w":1.64},{"name":"Solomon Islands","x":0.0496,"y":0.8865,"lat":-8.888,"lon":159.571,"w":1.532},{"name":"Haiti","x":-0.1072,"y":-0.4038,"lat":18.937,"lon":-72.684,"w":1.525},{"name":"Slovenia","x":-0.2895,"y":0.0823,"lat":46.124,"lon":14.818,"w":1.524},{"name":"Burundi","x":0.0187,"y":0.1661,"lat":-3.368,"lon":29.89,"w":1.481},{"name":"Equatorial Guinea","x":-0.0095,"y":0.0574,"lat":1.702,"lon":10.332,"w":1.48},{"name":"Israel","x":-0.1843,"y":0.1945,"lat":31.456,"lon":35.013,"w":1.45},{"name":"Rwanda","x":0.0111,"y":0.1663,"lat":-2,"lon":29.926,"w":1.434},{"name":"Belize","x":-0.0971,"y":-0.4927,"lat":17.21,"lon":-88.691,"w":1.368},{"name":"Djibouti","x":-0.0656,"y":0.2365,"lat":11.727,"lon":42.565,"w":1.362},{"name":"El Salvador","x":-0.077,"y":-0.4937,"lat":13.73,"lon":-88.867,"w":1.306},{"name":"New Caledonia","x":0.1212,"y":0.9206,"lat":-21.306,"lon":165.7,"w":1.28},{"name":"Kuwait","x":-0.1707,"y":0.2645,"lat":29.353,"lon":47.612,"w":1.273},{"name":"Falkland Islands","x":0.337,"y":-0.33,"lat":-51.741,"lon":-59.395,"w":1.27},{"name":"Fiji","x":0.0985,"y":0.8989,"lat":-17.446,"lon":161.8,"w":1.27},{"name":"Swaziland","x":0.1532,"y":0.175,"lat":-26.565,"lon":31.498,"w":1.255},{"name":"Montenegro","x":-0.2634,"y":0.1069,"lat":42.777,"lon":19.237,"w":1.211},{"name":"Timor-Leste","x":0.0492,"y":0.6992,"lat":-8.82,"lon":125.852,"w":1.107},{"name":"Bahamas","x":-0.139,"y":-0.4258,"lat":24.259,"lon":-76.647,"w":1.091},{"name":"Kosovo","x":-0.2619,"y":0.116,"lat":42.571,"lon":20.877,"w":1.09},{"name":"Vanuatu","x":0.0913,"y":0.9318,"lat":-16.211,"lon":167.721,"w":1.021},{"name":"Qatar","x":-0.1453,"y":0.2844,"lat":25.285,"lon":51.191,"w":1.019},{"name":"Lebanon","x":-0.2005,"y":0.1994,"lat":33.92,"lon":35.892,"w":0.999},{"name":"French Southern Territories","x":0.313,"y":0.3813,"lat":-48.977,"lon":68.627,"w":0.983},{"name":"Jamaica","x":-0.1026,"y":-0.4295,"lat":18.157,"lon":-77.31,"w":0.969},{"name":"Gambia","x":-0.0754,"y":-0.0854,"lat":13.451,"lon":-15.373,"w":0.944},{"name":"Puerto Rico","x":-0.103,"y":-0.3693,"lat":18.222,"lon":-66.468,"w":0.875},{"name":"Palestine","x":-0.1873,"y":0.1956,"lat":31.916,"lon":35.209,"w":0.77},{"name":"South Georgia and the South Sand","x":0.3643,"y":-0.1995,"lat":-54.677,"lon":-35.91,"w":0.755},{"name":"Cyprus","x":-0.2073,"y":0.1834,"lat":34.927,"lon":33.003,"w":0.751},{"name":"Brunei","x":-0.0252,"y":0.6375,"lat":4.528,"lon":114.756,"w":0.686},{"name":"Shaksgam Valley","x":-0.2145,"y":0.4253,"lat":35.975,"lon":76.556,"w":0.676},{"name":"Trinidad and Tobago","x":-0.0585,"y":-0.3403,"lat":10.474,"lon":-61.259,"w":0.653},{"name":"Cabo Verde","x":-0.0898,"y":-0.1332,"lat":15.947,"lon":-23.978,"w":0.588},{"name":"French Polynesia","x":0.0885,"y":-0.8073,"lat":-15.721,"lon":-145.32,"w":0.585},{"name":"Northern Cyprus","x":-0.2097,"y":0.1867,"lat":35.278,"lon":33.599,"w":0.573},{"name":"Luxembourg","x":-0.3198,"y":0.0339,"lat":49.776,"lon":6.094,"w":0.568},{"name":"Faroe Islands","x":-0.4429,"y":-0.0383,"lat":62.069,"lon":-6.89,"w":0.497},{"name":"Åland","x":-0.4215,"y":0.112,"lat":60.202,"lon":20.165,"w":0.494},{"name":"Samoa","x":0.0771,"y":-0.9565,"lat":-13.745,"lon":-172.172,"w":0.488},{"name":"Réunion","x":0.1202,"y":0.3085,"lat":-21.133,"lon":55.533,"w":0.467},{"name":"Mauritius","x":0.1141,"y":0.3216,"lat":-20.12,"lon":57.896,"w":0.419},{"name":"Comoros","x":0.0666,"y":0.2427,"lat":-11.894,"lon":43.684,"w":0.373},{"name":"Guadeloupe","x":-0.0912,"y":-0.3419,"lat":16.198,"lon":-61.539,"w":0.373},{"name":"Pa-li-chia-ssu","x":-0.1934,"y":0.4408,"lat":32.843,"lon":79.352,"w":0.37},{"name":"Sang","x":-0.183,"y":0.4393,"lat":31.265,"lon":79.077,"w":0.32},{"name":"Martinique","x":-0.0823,"y":-0.339,"lat":14.653,"lon":-61.018,"w":0.306},{"name":"Turks and Caicos Islands","x":-0.1239,"y":-0.399,"lat":21.758,"lon":-71.824,"w":0.294},{"name":"Kiribati","x":-0.0031,"y":-0.2178,"lat":0.565,"lon":-39.197,"w":0.287},{"name":"São Tomé and Príncipe","x":-0.0024,"y":0.0373,"lat":0.436,"lon":6.716,"w":0.285},{"name":"Isle of Man","x":-0.36,"y":-0.0252,"lat":54.228,"lon":-4.539,"w":0.283},{"name":"Tonga","x":0.1126,"y":-0.9712,"lat":-19.857,"lon":-174.822,"w":0.257},{"name":"Bahrain","x":-0.1499,"y":0.2809,"lat":26.039,"lon":50.561,"w":0.254},{"name":"Dominica","x":-0.0868,"y":-0.3408,"lat":15.435,"lon":-61.35,"w":0.252},{"name":"Micronesia","x":-0.0394,"y":0.8592,"lat":7.081,"lon":154.649,"w":0.252},{"name":"Singapore","x":-0.0075,"y":0.5768,"lat":1.353,"lon":103.815,"w":0.238},{"name":"Saint Lucia","x":-0.078,"y":-0.3387,"lat":13.898,"lon":-60.967,"w":0.227},{"name":"Andorra","x":-0.2616,"y":0.0088,"lat":42.544,"lon":1.575,"w":0.222},{"name":"Heard Island and McDonald Island","x":0.3494,"y":0.4084,"lat":-53.093,"lon":73.511,"w":0.221},{"name":"Guam","x":-0.0754,"y":0.8043,"lat":13.443,"lon":144.777,"w":0.214},{"name":"Northern Mariana Islands","x":-0.0901,"y":0.8089,"lat":16.012,"lon":145.6,"w":0.206},{"name":"Seychelles","x":0.0377,"y":0.2875,"lat":-6.769,"lon":51.756,"w":0.201},{"name":"Palau","x":-0.0412,"y":0.7472,"lat":7.404,"lon":134.495,"w":0.199},{"name":"Saint Helena, Ascension and Tris","x":0.1481,"y":-0.0583,"lat":-25.739,"lon":-10.487,"w":0.195},{"name":"Antigua and Barbuda","x":-0.0974,"y":-0.3433,"lat":17.271,"lon":-61.798,"w":0.192},{"name":"Curaçao","x":-0.0683,"y":-0.3832,"lat":12.193,"lon":-68.972,"w":0.191},{"name":"Barbados","x":-0.0738,"y":-0.3309,"lat":13.172,"lon":-59.556,"w":0.19},{"name":"Saint Vincent and the Grenadines","x":-0.074,"y":-0.34,"lat":13.2,"lon":-61.201,"w":0.182},{"name":"Mayotte","x":0.0718,"y":0.2508,"lat":-12.821,"lon":45.148,"w":0.181},{"name":"Malta","x":-0.2141,"y":0.08,"lat":35.923,"lon":14.4,"w":0.18},{"name":"Virgin Islands, U.S.","x":-0.1015,"y":-0.36,"lat":17.972,"lon":-64.803,"w":0.176},{"name":"Grenada","x":-0.068,"y":-0.3425,"lat":12.153,"lon":-61.659,"w":0.173},{"name":"Kaurik","x":-0.1885,"y":0.4367,"lat":32.109,"lon":78.598,"w":0.171},{"name":"Bonaire, Sint Eustatius and Saba","x":-0.0718,"y":-0.3759,"lat":12.823,"lon":-67.668,"w":0.164},{"name":"Saint Pierre and Miquelon","x":-0.296,"y":-0.3128,"lat":46.93,"lon":-56.306,"w":0.164},{"name":"Marshall Islands","x":-0.0483,"y":0.9389,"lat":8.661,"lon":168.995,"w":0.157},{"name":"Cook Islands","x":0.1081,"y":-0.8847,"lat":-19.095,"lon":-159.252,"w":0.156},{"name":"Lapthal","x":-0.1796,"y":0.4451,"lat":30.74,"lon":80.127,"w":0.156},{"name":"Maldives","x":-0.0207,"y":0.4068,"lat":3.718,"lon":73.225,"w":0.156},{"name":"Cayman Islands","x":-0.11,"y":-0.4493,"lat":19.425,"lon":-80.874,"w":0.155},{"name":"Akrotiri and Dhekelia","x":-0.2067,"y":0.1855,"lat":34.84,"lon":33.392,"w":0.152},{"name":"Niue","x":0.1079,"y":-0.9437,"lat":-19.052,"lon":-169.859,"w":0.151},{"name":"Saint Kitts and Nevis","x":-0.0974,"y":-0.3483,"lat":17.272,"lon":-62.701,"w":0.151},{"name":"Liechtenstein","x":-0.2977,"y":0.0531,"lat":47.141,"lon":9.554,"w":0.138},{"name":"American Samoa","x":0.0798,"y":-0.9465,"lat":-14.223,"lon":-170.375,"w":0.131},{"name":"Jersey","x":-0.315,"y":-0.0118,"lat":49.214,"lon":-2.132,"w":0.124},{"name":"Aruba","x":-0.0701,"y":-0.3887,"lat":12.509,"lon":-69.97,"w":0.123},{"name":"British Virgin Islands","x":-0.1046,"y":-0.3584,"lat":18.503,"lon":-64.518,"w":0.12},{"name":"Wallis and Futuna","x":0.0772,"y":-0.9839,"lat":-13.767,"lon":-177.105,"w":0.114},{"name":"Christmas Island","x":0.0586,"y":0.5869,"lat":-10.485,"lon":105.637,"w":0.107},{"name":"Guernsey","x":-0.3173,"y":-0.014,"lat":49.486,"lon":-2.515,"w":0.105},{"name":"Bouvet Island","x":0.3619,"y":0.0188,"lat":-54.428,"lon":3.382,"w":0.104},{"name":"Montserrat","x":-0.0943,"y":-0.3455,"lat":16.739,"lon":-62.19,"w":0.092},{"name":"Anguilla","x":-0.103,"y":-0.3503,"lat":18.22,"lon":-63.055,"w":0.083},{"name":"San Marino","x":-0.2723,"y":0.0692,"lat":43.939,"lon":12.461,"w":0.083},{"name":"Bermuda","x":-0.1898,"y":-0.3598,"lat":32.309,"lon":-64.767,"w":0.081},{"name":"British Indian Ocean Territory","x":0.0372,"y":0.4007,"lat":-6.683,"lon":72.121,"w":0.073},{"name":"Pitcairn Islands","x":0.14,"y":-0.7139,"lat":-24.426,"lon":-128.495,"w":0.069},{"name":"Saint-Martin","x":-0.1022,"y":-0.3503,"lat":18.08,"lon":-63.06,"w":0.069},{"name":"United States Minor Outlying Isl","x":-0.0896,"y":-0.5468,"lat":15.923,"lon":-98.431,"w":0.064},{"name":"Norfolk Island","x":0.1687,"y":0.9331,"lat":-29.038,"lon":167.952,"w":0.061},{"name":"Tuvalu","x":0.0422,"y":0.9894,"lat":-7.582,"lon":178.094,"w":0.058},{"name":"Sint Maarten","x":-0.1019,"y":-0.3503,"lat":18.038,"lon":-63.062,"w":0.057},{"name":"Nauru","x":0.0029,"y":0.9274,"lat":-0.528,"lon":166.934,"w":0.042},{"name":"Saint-Barthélemy","x":-0.1011,"y":-0.3491,"lat":17.905,"lon":-62.832,"w":0.042},{"name":"Paracel Islands","x":-0.0934,"y":0.6241,"lat":16.573,"lon":112.33,"w":0.041},{"name":"Tokelau","x":0.0506,"y":-0.9543,"lat":-9.069,"lon":-171.782,"w":0.036},{"name":"Cocos Islands","x":0.0679,"y":0.5381,"lat":-12.135,"lon":96.862,"w":0.034},{"name":"Clipperton Island","x":-0.0575,"y":-0.6068,"lat":10.303,"lon":-109.217,"w":0.029},{"name":"Gibraltar","x":-0.2156,"y":-0.0297,"lat":36.137,"lon":-5.349,"w":0.027},{"name":"Monaco","x":-0.2707,"y":0.0412,"lat":43.736,"lon":7.423,"w":0.016},{"name":"Spratly Islands","x":-0.0606,"y":0.6362,"lat":10.838,"lon":114.509,"w":0.012},{"name":"Vatican City","x":-0.2568,"y":0.0692,"lat":41.904,"lon":12.453,"w":0.008}]